gps_seconds[s]	panorama_file_name	latitude[deg]	longitude[deg]	altitude_ellipsoidal[m]	roll[deg]	pitch[deg]	heading[deg]
1333877952.002	pano_0000_000000	37.0273175520308	22.08959195551	30.1541528953239	-2.43770868830939	-0.984429744228257	285.627578424761
1333877952.055	pano_0000_000001	37.0273165908554	22.0895960504979	30.1498363437131	-2.52827887477809	-1.19789654298943	285.694208372618
1333877952.609	pano_0000_000002	37.0273064383444	22.0896390661756	30.1938243238255	-2.74970711624773	-0.930191372403024	286.121953723526
1333877953.175	pano_0000_000003	37.0272962660583	22.0896822586849	30.2170394202694	-2.46788387313837	-0.675415022631297	286.251280160138
1333877953.754	pano_0000_000004	37.027286075142	22.0897253577957	30.2265128139406	-2.2433770489726	-0.720662831349478	286.178437110753
1333877954.35	pano_0000_000005	37.0272757798575	22.0897685002458	30.2427185522392	-2.62835902591773	-0.866607983231818	285.839812083566
1333877954.964	pano_0000_000006	37.0272657306017	22.0898117603949	30.2732772268355	-2.91772733676021	-1.00129581742455	285.317953227462
1333877955.599	pano_0000_000007	37.0272562424335	22.0898553827298	30.3047435795888	-2.56031556153133	-0.863590837692661	284.666581184031
1333877956.28	pano_0000_000008	37.0272473568006	22.0898988955098	30.3391202995554	-1.95201410022239	-1.00519730860541	283.877778235018
1333877957.036	pano_0000_000009	37.0272388294204	22.0899425714594	30.3842560146004	-1.74479950451017	-1.45387452157258	282.96223913558
1333877957.844	pano_0000_000010	37.0272308375912	22.0899863164993	30.4508739318699	-1.62296177119118	-1.54054342671884	281.998031760478
1333877958.684	pano_0000_000011	37.0272236899895	22.090030334136	30.5090461736545	-1.16620638676173	-1.97546531140435	280.607559259201
1333877959.52	pano_0000_000012	37.027217133259	22.0900749603665	30.6048543164507	-0.372664256908489	-1.47589876016127	280.687042248482
1333877960.335	pano_0000_000013	37.0272101757936	22.0901189778918	30.6730284746736	0.170559254133424	-1.69864028746546	281.732788087264
1333877961.11	pano_0000_000014	37.027202373153	22.0901629245213	30.7533008437604	0.0192376540225574	-1.65533624498214	282.400088186561
1333877961.844	pano_0000_000015	37.0271944362543	22.0902069851138	30.8122803121805	-0.101440717214407	-1.35818130325492	282.194428400168
1333877962.55	pano_0000_000016	37.0271867786605	22.090251442963	30.8517833221704	0.0215988081068141	-0.896498863473135	281.459515227578
1333877963.245	pano_0000_000017	37.0271797299507	22.0902956450015	30.8391258241609	0.152532826459225	-1.47192716338732	280.598504015423
1333877963.944	pano_0000_000018	37.0271730321331	22.0903399802563	30.8722314257175	0.423462618196145	-0.770967758724972	280.696938664687
1333877964.645	pano_0000_000019	37.0271657415466	22.090384032641	30.8842982891947	-0.0291130175789212	-0.510374666691685	282.000890670706
1333877965.345	pano_0000_000020	37.027157173828	22.0904276511287	30.8832395253703	-0.584446151823832	-0.0375523905062163	284.985665265484
1333877966.066	pano_0000_000021	37.0271468037302	22.090470337986	30.8632079642266	-0.457940628081175	0.0941957600992349	288.367035059116
1333877966.834	pano_0000_000022	37.0271349739855	22.0905123287823	30.8301347661763	-0.46134912217578	0.0128679847004005	289.305532775034
1333877967.679	pano_0000_000023	37.027123480175	22.0905553670104	30.8156727869064	-0.810231604945028	-0.0136329890204703	285.274134811281
1333877968.635	pano_0000_000024	37.0271168721111	22.0906003150566	30.7977578705177	-0.210077964553548	-0.479012045752569	272.707738626448
1333877969.744	pano_0000_000025	37.0271222903085	22.0906466742305	30.7837506849319	1.58599958594315	0.828505392362199	249.245871304671
1333877970.889	pano_0000_000026	37.0271438609356	22.09068677246	30.5966060804203	3.15690400195462	5.56727559228599	224.941430994237
1333877971.904	pano_0000_000027	37.0271722347715	22.0907138064495	30.2325877975672	-0.0824292412023571	2.22709264144327	207.372417706257
1333877972.854	pano_0000_000028	37.0272050920727	22.0907319333675	30.0815582694486	-0.748601606113999	-0.313313313389484	199.24191478094
1333877973.714	pano_0000_000029	37.0272399069178	22.0907456884978	30.0556522207335	-0.947512841482002	-0.432561737747621	195.04771943847
1333877974.485	pano_0000_000030	37.0272752775382	22.0907572858846	30.0271016070619	-1.27413180358178	-0.585231149423221	193.20698594248
1333877975.196	pano_0000_000031	37.0273107987863	22.0907676765571	30.0042712539434	-1.23241377785063	-0.6347881076708	192.481880709063
1333877975.864	pano_0000_000032	37.027346345411	22.0907774712406	29.9847652195022	-0.790531060085691	-0.295877583885426	192.325466182123
1333877976.505	pano_0000_000033	37.0273816256915	22.0907873403912	29.9626096412539	-0.851889478406439	-0.720558116116089	192.309581122703
1333877977.141	pano_0000_000034	37.0274171001814	22.0907973364208	29.9619480492547	-1.01917276733638	-0.696395049458656	192.25972087855
1333877977.774	pano_0000_000035	37.0274522975693	22.0908070995209	29.9664174756035	-0.807296375205031	-0.806389317828506	192.464219082042
1333877978.415	pano_0000_000036	37.0274874900766	22.090817166342	29.9751202836633	-0.718125847040941	-0.897748626717499	192.892202406092
1333877979.071	pano_0000_000037	37.0275228374894	22.0908273513133	29.9905131822452	-0.0156543497630741	-0.491135288071749	193.288563829359
1333877979.75	pano_0000_000038	37.0275579455245	22.090837941182	29.9865852678195	0.0870492874820676	-0.381787121718656	193.453652104488
1333877980.45	pano_0000_000039	37.0275927793865	22.0908485437305	29.9714843407273	-0.228596708658644	-0.223672285755017	193.158454947363
1333877981.161	pano_0000_000040	37.0276277157494	22.0908586428376	29.9592598397285	0.006045624593302	-0.735271151402657	192.648354828555
1333877981.874	pano_0000_000041	37.0276630057187	22.0908683371325	29.9723331248388	0.312154900960257	-0.759814559890762	192.035273509708
1333877982.59	pano_0000_000042	37.0276982756911	22.0908778264009	29.9853987330571	0.575864612011196	-0.810875683107135	192.269250151619
1333877983.315	pano_0000_000043	37.0277335904277	22.0908878405971	30.0048098769039	0.411950893952137	-0.63816604139091	192.681344602242
1333877984.056	pano_0000_000044	37.0277687579689	22.0908981800256	30.0126027371734	0.138489324810453	-0.558003715436218	193.152905361276
1333877984.835	pano_0000_000045	37.0278039374432	22.090908850272	30.0296418787912	0.238195123346797	-0.787089104821996	193.703753160081
1333877985.66	pano_0000_000046	37.0278389588903	22.0909199184641	30.0510255545378	0.23550090076078	-0.820597204766821	194.23787017073
1333877986.54	pano_0000_000047	37.027873856358	22.090931340463	30.0693889809772	0.326426703019686	-0.877303805398216	194.795037259106
1333877987.5	pano_0000_000048	37.0279087483291	22.0909433270985	30.0988424243405	0.122978671076668	-0.613540273359411	195.314807023333
1333877988.77	pano_0000_000049	37.0279430917072	22.0909557025307	30.130999638699	-0.43919836093832	-1.10692943274788	195.613192726677
1333877991.505	pano_0000_000050	37.0279773281357	22.0909681310202	30.1740440065041	-0.703707197447934	-1.38379044648671	195.603895706495
1333877994.166	pano_0000_000051	37.0280116666215	22.0909806133263	30.2173801595345	-0.208816112801873	-0.995922224695503	200.702563160679
1333877997.096	pano_0000_000052	37.0280479763498	22.0909939901947	30.2492653047666	0.409785729114129	1.81922211523523	189.547695267569
1333877999.895	pano_0000_000053	37.0280833439467	22.0909988184021	30.2670837333426	0.204940285293321	-1.47439224656429	184.880333841998
1333878001.356	pano_0000_000054	37.0281192022097	22.091003922632	30.305689140223	0.568855033399388	-1.81814690006674	188.535534018245
1333878002.296	pano_0000_000055	37.0281548574622	22.0910122689151	30.3602613965049	0.708257128039247	-1.34299484835093	192.266179450323
1333878003.061	pano_0000_000056	37.0281899223662	22.0910226617429	30.3940622545779	0.284192107794332	-1.50668306986788	193.27569437972
1333878003.795	pano_0000_000057	37.0282249800872	22.0910331170688	30.4416846530512	0.623513206412867	-1.2204649107943	193.494331528884
1333878004.55	pano_0000_000058	37.0282601511598	22.0910437832569	30.4848221261054	0.927535014384599	-1.03615057648276	193.630550952203
1333878005.326	pano_0000_000059	37.0282952950977	22.0910545791719	30.5260283024982	1.01994318020783	-0.964182548098679	193.567451815301
1333878006.106	pano_0000_000060	37.0283301427438	22.0910653363108	30.5567886279896	0.761550460812489	-1.39613701271348	193.394264584261
1333878006.905	pano_0000_000061	37.0283652992276	22.0910758205598	30.603186449036	1.17770467545959	-0.936063861299741	193.786106533297
1333878007.785	pano_0000_000062	37.028399698837	22.0910872005975	30.637605461292	0.989280224751695	-1.31892978782566	195.722429617538
1333878008.85	pano_0000_000063	37.028433003851	22.0911016012137	30.6894970340654	0.908148194777249	-1.15136511423827	204.367024216216
1333878010.047	pano_0000_000064	37.0284613136932	22.0911255880046	30.7237725127488	-0.599750812933799	-0.381141717175212	225.47804442858
1333878011.226	pano_0000_000065	37.0284786041626	22.091160572325	30.6917701577768	0.274882014142232	-0.948980182838051	253.457568439085
1333878012.221	pano_0000_000066	37.0284814525759	22.0912027338767	30.693043211475	0.78327637238194	-0.754253836732223	276.173722055164
1333878013.071	pano_0000_000067	37.0284742673575	22.0912455587641	30.6871654447168	0.39487005079099	-0.585014245717594	285.258760487295
1333878013.835	pano_0000_000068	37.0284636435294	22.0912882853409	30.6694022836164	-0.0729666280425456	-0.0783917956812383	287.71332631396
1333878014.565	pano_0000_000069	37.028452186159	22.0913308963608	30.635038305074	-0.643340559280261	0.0650529595235927	287.746590431373
1333878015.286	pano_0000_000070	37.0284411557552	22.091373795859	30.5929138017818	-1.16035280053173	-0.069439634012408	286.165499421315
1333878016.012	pano_0000_000071	37.028431771509	22.0914178887241	30.5540605932474	-0.523955102501109	0.0813111736901083	283.436313111773
1333878016.76	pano_0000_000072	37.0284240522742	22.0914621604268	30.5147033035755	-0.175929583519015	-0.152311529125613	280.78048120211
1333878017.541	pano_0000_000073	37.0284176946202	22.091506749656	30.4910262916237	-0.0103253831341228	-0.370898787193158	279.163030758427
1333878018.431	pano_0000_000074	37.0284118964706	22.0915516404906	30.4885615520179	0.128821918325734	-0.0537753513577101	279.472828416069
1333878019.596	pano_0000_000075	37.0284046416078	22.0915955621635	30.4679677691311	0.00570251665675812	0.191814688098063	285.109849258292
1333878025.092	pano_0000_000076	37.0283904538051	22.0916358083585	30.3832000698894	-0.61522233564759	-1.71612627371148	307.821804715985
1333878028.815	pano_0000_000077	37.0283621797363	22.0916565583521	30.3924227580428	-2.0524573302998	-1.27229099883689	349.725105429057
1333878030.321	pano_0000_000078	37.028326699184	22.0916604080891	30.3749947100878	-0.722350635632397	-0.582646556344112	359.664695008168
1333878031.341	pano_0000_000079	37.0282910537574	22.0916588782831	30.3321650642902	0.521162777926286	-0.590106242703187	5.0440038211151
1333878032.192	pano_0000_000080	37.0282553668346	22.0916530099399	30.2990282755345	0.567403454428176	-0.09201469966676	9.39891451114585
1333878033.042	pano_0000_000081	37.0282202315289	22.0916441196675	30.2664902480319	0.531726508275472	0.000239190971507708	11.8956223606612
1333878033.925	pano_0000_000082	37.0281854804252	22.0916344579861	30.2339708609506	1.001101776595	-0.219826358292939	12.7219875010564
1333878034.81	pano_0000_000083	37.0281507730507	22.0916238114774	30.1921629849821	0.288756496190174	-0.68817780812791	13.1846503837994
1333878035.701	pano_0000_000084	37.02811558415	22.0916132151319	30.1918441494927	0.616117761591134	0.0359134624519639	13.3246893148313
1333878036.616	pano_0000_000085	37.0280807704761	22.0916028349324	30.1603615675122	0.964579474723151	0.110442611529681	13.5481046280163
1333878037.621	pano_0000_000086	37.0280464541966	22.0915918694559	30.135964429006	1.1171195683946	-0.35263806630114	15.3435903794096
1333878038.895	pano_0000_000087	37.0280122243502	22.0915787804137	30.1289031524211	0.635399592905531	0.317645101395744	17.733341950728
1333878040.781	pano_0000_000088	37.0279786856522	22.0915643751353	30.099923286587	-0.362729986370502	-0.4331706860305	17.9057719818976
1333878043.411	pano_0000_000089	37.0279440608514	22.091550808699	30.077739498578	-0.455835584882588	-0.0642502061778228	16.1698791729084
1333878045.94	pano_0000_000090	37.0279096901503	22.0915365440671	30.0537101766095	-2.32771892740445	0.121434559113037	17.684890199701
1333878048.107	pano_0000_000091	37.0278750849536	22.0915232907785	30.0100540453568	-0.327767808710354	0.270199763951148	17.6391745185421
1333878049.621	pano_0000_000092	37.0278405117759	22.091510976448	29.9177229041234	1.69025132029606	-0.145038617202716	15.0045506232983
1333878050.701	pano_0000_000093	37.027805304853	22.0915011056959	29.8513357779011	2.72505073797857	-0.274160238180537	10.6864344243301
1333878051.616	pano_0000_000094	37.0277695859671	22.0914943141827	29.8085668031126	3.92316957112741	-0.0326421562138547	7.68590624832518
1333878052.421	pano_0000_000095	37.0277340502982	22.0914887579721	29.7521510617808	4.87712261050314	-0.117533013090856	7.81620688485111
1333878053.147	pano_0000_000096	37.0276987809558	22.091481944365	29.7164429072291	4.77554266562419	-0.487775179282868	9.66470171999799
1333878053.821	pano_0000_000097	37.0276635214859	22.0914734265652	29.7009657341987	4.47931940635224	-0.477380194951056	11.8417703753272
1333878054.466	pano_0000_000098	37.0276284585041	22.0914632401728	29.7014458393678	3.85357931686395	-0.501593932772152	13.6311581917086
1333878055.112	pano_0000_000099	37.0275936751308	22.0914522752703	29.6954382648692	4.02866565152875	-0.507575410419182	14.4149734845454
1333878055.781	pano_0000_000100	37.0275589508683	22.091440990705	29.6955689415336	3.93010418273895	-0.381571069256168	14.5372695943942
1333878056.506	pano_0000_000101	37.0275241929246	22.0914289775782	29.7113178009167	3.12370798648287	0.0206577235174845	15.0705520891463
1333878057.287	pano_0000_000102	37.027489719113	22.091417382812	29.6802545506507	3.32028293751204	-0.60202890402033	14.8583397896675
1333878058.137	pano_0000_000103	37.0274548675462	22.0914054128019	29.67863649223	2.44324841795618	-0.139385303707979	14.5941384330847
1333878059.042	pano_0000_000104	37.0274208880727	22.0913931035425	29.6161823300645	-0.140428095735298	-1.8066614243494	13.9564752749773
1333878059.997	pano_0000_000105	37.0273861273788	22.09138242387	29.6788172405213	0.368344458235767	-1.95868524998033	13.657429292803
1333878060.886	pano_0000_000106	37.0273510265964	22.0913713594472	29.7368709789589	0.535204590435773	-0.98542834785636	13.9775938069685
1333878061.631	pano_0000_000107	37.0273162846895	22.0913606493266	29.7495175180957	1.60005925772024	-1.13263690820735	14.3911795893117
1333878062.292	pano_0000_000108	37.0272815775793	22.0913496316794	29.7666076133028	2.58532350220057	-1.24343756292749	14.6645667760402
1333878062.906	pano_0000_000109	37.0272468783521	22.091338403304	29.7931526405737	3.47528871250527	-0.840351793721053	14.9688289618977
1333878063.521	pano_0000_000110	37.027212532033	22.0913262838738	29.8128542108461	2.71720072149864	-1.48295556415231	15.7223276317304
1333878064.167	pano_0000_000111	37.0271781209872	22.0913133987699	29.8900959705934	1.75781991655174	-0.876152874762656	16.205729249436
1333878064.846	pano_0000_000112	37.0271443152712	22.0913006790896	29.9236970730126	1.42403221138247	-1.93519317442918	16.8106169873575
1333878065.581	pano_0000_000113	37.0271105599415	22.0912871995401	30.0080957636237	0.798580769035674	-2.24154416823332	17.2075838473116
1333878066.437	pano_0000_000114	37.0270772371534	22.0912733007672	30.1243166923523	-0.2704259070411	-3.39474525149702	19.0316679837384
1333878067.506	pano_0000_000115	37.0270449423294	22.0912573166543	30.3405539421365	0.0831195670778545	-3.42117399690062	26.9066538679141
1333878068.846	pano_0000_000116	37.0270179587594	22.0912328673364	30.5626193964854	0.176260381125455	-2.51213590652642	49.8777054992743
1333878070.317	pano_0000_000117	37.0270029965319	22.091196918457	30.6818118086085	0.791240585266484	-1.69026939209439	77.9101054948006
1333878071.422	pano_0000_000118	37.0270021647291	22.0911546919522	30.7395797315985	0.454918780246882	-1.31634816330799	97.0551335534104
1333878072.327	pano_0000_000119	37.0270085633233	22.0911113193857	30.7759143542498	0.381838294233278	-1.37726637682252	102.429559876052
1333878073.122	pano_0000_000120	37.027017214602	22.0910676856266	30.8167184097692	0.169942029453278	-1.17712438965057	104.45756848361
1333878073.851	pano_0000_000121	37.0270267731382	22.0910240222791	30.8506052400917	0.0255444346357419	-0.61825599255691	105.501482576393
1333878074.582	pano_0000_000122	37.0270368525412	22.0909803312164	30.8648289544508	0.0865049404458372	-0.326720779159556	105.869202692499
1333878075.337	pano_0000_000123	37.0270467015899	22.0909365885705	30.857844080776	0.425949186752239	-0.47335627584427	104.873617412483
1333878076.137	pano_0000_000124	37.0270557500089	22.0908922771686	30.8593167439103	0.562885024943573	-0.584657725805787	103.214376229599
1333878076.993	pano_0000_000125	37.027064004917	22.0908478344318	30.8707499038428	0.587743148206309	-0.592711132195574	102.622435128314
1333878077.966	pano_0000_000126	37.0270727265684	22.0908041080421	30.8749185064808	0.717844921595822	-0.502456398235873	107.041428630392
1333878105.002	pano_0001_000000	37.0279952100569	22.091125240833	30.1064016437158	0.339414584204269	-0.556150114527038	279.511443776528
1333878105.532	pano_0001_000001	37.0279914378936	22.0911498861517	30.0980041893199	0.43582888302256	-0.659515870405764	281.994847227421
1333878106.397	pano_0001_000002	37.0279829443537	22.09119366709	30.0949705224484	0.164378286110815	-0.663842225292905	284.372097086273
1333878107.213	pano_0001_000003	37.0279734770787	22.0912371113748	30.098254266195	-0.190078727911912	-0.671045809455602	285.18676223911
1333878108.038	pano_0001_000004	37.027963797465	22.0912806891818	30.1025687428191	-0.195147576823145	-0.416239924167365	285.424126479511
1333878108.906	pano_0001_000005	37.0279542245064	22.0913241050292	30.1002340409905	-0.0383892643970538	-0.464094653272257	285.041835776499
1333878109.832	pano_0001_000006	37.0279448823267	22.0913678666629	30.0975614460185	0.0671913111890667	-0.469954055914657	284.444119729527
1333878110.866	pano_0001_000007	37.0279360239646	22.0914119004202	30.0933375889435	0.509245368291552	-0.119032227831521	283.71960241604
1333878112.203	pano_0001_000008	37.0279275835648	22.0914563276349	30.068665670231	0.673651308887209	0.564953473452345	282.669589721223
1333878113.966	pano_0001_000009	37.0279196902155	22.0914998280968	29.9565529916435	0.194608400230391	-1.48447806443942	281.895553075179
1333878116.053	pano_0001_000010	37.0279115243165	22.0915432572195	30.0242490340024	0.292604644670315	-2.74569271686502	286.147827533004
1333878117.832	pano_0001_000011	37.0278999092248	22.0915860757074	30.1280390284956	0.60681024591596	-1.00520714448709	291.109568106579
1333878119.168	pano_0001_000012	37.0278861534941	22.0916270955643	30.1781496312469	-0.195652465505583	-1.35346460882066	292.786548606357
1333878120.248	pano_0001_000013	37.0278721684483	22.0916683768028	30.2124233040959	-0.415934316661362	-1.706741956703	292.304210439961
1333878121.143	pano_0001_000014	37.0278586205658	22.0917101342851	30.2560070175678	-1.46857366269009	-1.66314627207526	289.691714514846
1333878121.922	pano_0001_000015	37.0278469121547	22.0917526785044	30.3066044850275	-0.990752286630067	-1.68985159043513	288.475974271566
1333878122.642	pano_0001_000016	37.0278358555604	22.0917955045651	30.3702708035707	0.154685190751286	-1.68558201390546	288.138056430227
1333878123.338	pano_0001_000017	37.0278247669026	22.0918383838697	30.4293201388791	0.490536833513083	-1.47259397612815	287.728544370096
1333878124.019	pano_0001_000018	37.0278137060742	22.0918812040278	30.48532634601	0.436389875542834	-1.50098453146391	287.769914761405
1333878124.687	pano_0001_000019	37.0278025519575	22.0919237039548	30.54034613166	-0.00499916335229351	-1.46143524697121	287.693742717299
1333878125.358	pano_0001_000020	37.0277914623638	22.0919667386472	30.5959155336022	-0.148936024331672	-1.20780161261087	287.395480429737
1333878126.024	pano_0001_000021	37.0277806501407	22.0920094046549	30.6174999317154	-0.74764063940116	-1.72275531317005	286.577802934294
1333878126.687	pano_0001_000022	37.0277706836991	22.0920525682423	30.6652040127665	0.382764061408757	-1.56718093616597	286.869396173107
1333878127.348	pano_0001_000023	37.027759917049	22.0920953938776	30.699476047419	-0.259326307330023	-1.41060298915589	286.91299799999
1333878128.009	pano_0001_000024	37.0277496763461	22.092138619586	30.7528376821429	0.599745024460444	-1.19280732451416	286.82763148359
1333878128.662	pano_0001_000025	37.0277392637336	22.0921813394724	30.784844876267	0.670454534930663	-1.11743271662576	286.828308085461
1333878129.318	pano_0001_000026	37.027728811156	22.0922244249009	30.8200354175642	0.808198032727148	-1.16692205591647	286.785315867862
1333878129.967	pano_0001_000027	37.0277182694023	22.0922675635619	30.8662342736498	0.314051402157725	-0.616929877763658	286.625631836338
1333878130.607	pano_0001_000028	37.0277080909308	22.0923101884432	30.8879458531737	0.765007110275277	-1.75147536232534	286.777610069808
1333878131.248	pano_0001_000029	37.027697546222	22.0923535187014	30.9574137842283	1.04421353907129	-1.23958642716963	287.0968405378
1333878131.882	pano_0001_000030	37.0276866199353	22.0923963374813	30.9928099894896	0.116934901305456	-1.45658005891808	287.109504708044
1333878132.513	pano_0001_000031	37.0276757865379	22.092439358951	31.0512414388359	-0.232471383588341	-1.45806715863442	287.168592358165
1333878133.143	pano_0001_000032	37.0276650918559	22.0924823035294	31.1079529700801	-0.0164401599977699	-1.62141805285729	287.341627153945
1333878133.772	pano_0001_000033	37.0276540172183	22.0925248530895	31.17315378692	-0.64894634365483	-1.74828842414624	287.809948210606
1333878134.413	pano_0001_000034	37.0276431004802	22.09256757146	31.2565150838345	-0.0561160166570456	-2.09443123649649	287.722272808886
1333878135.074	pano_0001_000035	37.0276322599196	22.0926107454037	31.3632439589128	-0.0526878098224369	-1.72846938242886	286.558417923434
1333878135.747	pano_0001_000036	37.0276223349867	22.0926536023302	31.451657271944	0.0879947657942886	-1.88502156037633	285.872784145042
1333878136.438	pano_0001_000037	37.0276122483032	22.0926966519721	31.5440772725269	0.0496929110925388	-1.4899860821539	286.852552737397
1333878137.128	pano_0001_000038	37.0276013340133	22.0927390093288	31.6146623967215	-0.168601138430797	-1.59245208728176	288.570747997357
1333878137.812	pano_0001_000039	37.0275895174402	22.0927810079914	31.6764840604737	-0.189957573614375	-2.03473067415975	289.751520248987
1333878138.493	pano_0001_000040	37.0275773469441	22.0928236626392	31.7880160417408	0.46535359187254	-0.867919034401778	289.542665517249
1333878139.153	pano_0001_000041	37.0275656901749	22.0928670063478	31.7854761481285	1.25151400691283	0.914522742715849	288.179838227962
1333878139.782	pano_0001_000042	37.0275545430928	22.0929096153327	31.7010919842869	0.901440396027923	0.293489382785748	287.654295637109
1333878140.393	pano_0001_000043	37.0275433946275	22.0929526380674	31.6326992446557	0.759288234654078	0.882428297437017	288.034290337302
1333878140.989	pano_0001_000044	37.0275315255933	22.092995475346	31.5223101135343	-0.534041213693829	1.11552386954669	288.285402961815
1333878141.568	pano_0001_000045	37.0275201075583	22.0930382414889	31.4265839960426	-0.699562927701791	0.798397413078586	287.999753822131
1333878142.134	pano_0001_000046	37.0275091127802	22.0930811163889	31.3304443182424	-0.59290551745843	0.605195440055875	287.182228878548
1333878142.692	pano_0001_000047	37.0274985738069	22.0931243189681	31.2464993773028	-0.432668185088247	0.571815180071491	286.570215975344
1333878143.243	pano_0001_000048	37.027488373614	22.093167655964	31.1609089216217	-0.190003140498222	0.668573003278313	286.168225056353
1333878143.787	pano_0001_000049	37.0274782278354	22.0932108884481	31.0723090209067	-0.460671023564941	0.422551513113567	286.063537084359
1333878144.328	pano_0001_000050	37.027467489448	22.0932545165679	31.0055407118052	-1.1320802959889	1.20961130984163	287.268102755477
1333878144.857	pano_0001_000051	37.0274565997825	22.0932967809573	30.9001991888508	-1.10607466588664	0.225638945229689	288.340109318087
1333878145.383	pano_0001_000052	37.0274452199875	22.09333996113	30.842060697265	-0.318673918329242	0.598129862600295	288.540323255223
1333878145.892	pano_0001_000053	37.027433799244	22.0933825308578	30.7657830240205	-0.340782095978649	0.41516087278668	288.186158877147
1333878146.393	pano_0001_000054	37.0274223057907	22.0934256273912	30.6882954053581	-0.72323007564466	0.497638711860275	287.842398158277
1333878146.877	pano_0001_000055	37.0274114879586	22.0934683366523	30.621111381799	-0.133657877839635	0.515961471926986	287.628430028343
1333878147.363	pano_0001_000056	37.027400666351	22.0935113153015	30.5558303734288	0.306754964751666	0.315300614507253	287.387523362248
1333878147.847	pano_0001_000057	37.0273897983636	22.0935540440898	30.4942618804052	0.0590301167354934	0.178431664712791	287.158749932011
1333878148.338	pano_0001_000058	37.027379218001	22.0935971435793	30.4479220584035	0.415478997910335	0.238246971583352	287.15059597638
1333878148.827	pano_0001_000059	37.0273684658965	22.0936402117707	30.3971520364285	0.166092735292416	0.201841692372359	287.15244572028
1333878149.308	pano_0001_000060	37.0273578468234	22.0936832465251	30.3400532724336	0.405366500623778	-0.162288996092463	287.118026792483
1333878149.782	pano_0001_000061	37.0273473677977	22.0937264178717	30.2978904079646	1.09773776266046	-0.459371111492033	287.042383689212
1333878150.248	pano_0001_000062	37.0273364467759	22.0937695010987	30.2873478131369	-0.15518562330091	-0.470924103165096	286.733227134121
1333878150.703	pano_0001_000063	37.0273259543957	22.0938128285496	30.276545076631	0.0968294073308208	-0.246366775993974	286.958985618889
1333878151.149	pano_0001_000064	37.0273150955597	22.0938558062463	30.2494397629052	-0.619577238758851	-0.89447463041117	287.148330243322
1333878151.588	pano_0001_000065	37.0273043137367	22.0938991734073	30.260609485209	-0.348458443656792	-0.337338804476947	287.361813076122
1333878152.019	pano_0001_000066	37.0272933556154	22.0939418727358	30.2407187512144	-0.769997584113123	-0.959121792558329	287.45323181004
1333878152.448	pano_0001_000067	37.0272822807159	22.0939849980002	30.2576091270894	-1.02291253798894	-0.640660479620421	287.453131735981
1333878152.872	pano_0001_000068	37.0272711437434	22.094027836655	30.2577422466129	-1.71023282415664	-0.583012115356347	287.43711610536
1333878153.293	pano_0001_000069	37.0272604096239	22.0940705029	30.2631627945229	-1.46639289209645	-1.21684235258406	287.347941239442
1333878153.713	pano_0001_000070	37.0272501162855	22.0941135163396	30.3023530468345	0.119694232013305	-1.25570412230176	287.326014154167
1333878154.134	pano_0001_000071	37.027239204204	22.0941565997419	30.3328324630857	-0.33909138686226	-0.916175758512689	287.123542009821
1333878154.553	pano_0001_000072	37.0272284926099	22.0941996030947	30.3534483648837	-0.501214213032676	-0.925057094157568	286.906505319285
1333878154.967	pano_0001_000073	37.0272178641092	22.0942421684814	30.3710473803803	-1.10206365237581	-1.17183760317404	286.826620350533
1333878155.383	pano_0001_000074	37.0272075086111	22.0942852095653	30.4077015966177	-0.403252570215061	-1.33097802054578	286.941059833837
1333878155.797	pano_0001_000075	37.0271970007694	22.0943282070599	30.4555962597951	-0.213637896231896	-1.00054571035931	287.186914174504
1333878156.214	pano_0001_000076	37.0271861045344	22.0943712886525	30.4822936151177	-0.350039946005454	-1.32767852023333	287.549998362568
1333878156.628	pano_0001_000077	37.0271751156748	22.09441432666	30.5294107459486	-0.157528801299493	-0.946296304506678	287.996713991081
1333878157.044	pano_0001_000078	37.0271634613801	22.0944573501721	30.5414284178987	-1.14874716387734	-0.898406041706523	288.196004016293
1333878157.453	pano_0001_000079	37.0271522006524	22.0945000102318	30.5518255196512	-0.836575382356046	-0.633749536188689	288.434262705518
1333878157.862	pano_0001_000080	37.0271407132774	22.0945428567377	30.5714053325355	-0.702470195010859	-0.109789486181155	288.436726889368
1333878158.269	pano_0001_000081	37.0271291546646	22.0945850992952	30.5362830692902	-1.50719025292587	-1.44302380534933	288.220808270433
1333878158.673	pano_0001_000082	37.0271173114495	22.0946279095924	30.5687060859054	-2.91447313927682	-0.110665714911291	288.081448764793
1333878159.074	pano_0001_000083	37.0271066091918	22.0946704559046	30.5449555385858	-1.28442043731341	-0.745572816659484	288.167765671192
1333878159.473	pano_0001_000084	37.0270957541112	22.0947132649206	30.5363920256495	-0.00533090183921714	-0.248820817316847	288.16981684232
1333878159.872	pano_0001_000085	37.0270845029526	22.0947561228698	30.5058105327189	-0.0237060874415177	-0.065522225511173	288.036842427433
1333878160.269	pano_0001_000086	37.0270728957159	22.0947989185175	30.4557797750458	-1.21746856746252	-0.0970420615952827	287.89414336155
1333878160.663	pano_0001_000087	37.0270620660326	22.0948420382058	30.4410361647606	-0.131740708988202	0.445417859467688	287.869587415834
1333878161.059	pano_0001_000088	37.027050844599	22.0948848040111	30.3481129594147	-0.851385711850523	-0.686635487720327	287.597521548458
1333878161.453	pano_0001_000089	37.0270400318439	22.0949279387732	30.3754074545577	-0.197304979522289	0.394218830812705	287.40366671695
1333878161.847	pano_0001_000090	37.0270293452187	22.0949703757738	30.3116507036611	-0.220451188445546	-0.461566515247188	287.091726696531
1333878162.249	pano_0001_000091	37.0270182997378	22.0950139068341	30.3045515334234	-1.27470655580173	-0.0498225273398387	286.742655913476
1333878162.648	pano_0001_000092	37.0270077588432	22.095057155718	30.2905349666253	-1.51190466399653	0.18433082574201	286.802924171455
1333878163.044	pano_0001_000093	37.0269973779011	22.0950992906222	30.2314665336162	-1.42638472322074	-1.82997589414963	287.327099322266
1333878163.443	pano_0001_000094	37.0269865202732	22.0951426665801	30.2956124255434	-0.938236456105769	-0.507130863203723	287.771498699966
1333878163.838	pano_0001_000095	37.0269756931782	22.0951853007758	30.3131485581398	-0.274544461667051	-0.651083460141316	287.923773201573
1333878164.234	pano_0001_000096	37.026964233394	22.0952279946385	30.3054988598451	-1.32700430972321	-0.889680402301478	287.834628232933
1333878164.628	pano_0001_000097	37.0269531845395	22.0952708849386	30.3288057614118	-1.10794116806119	-1.02775464245304	287.867238558873
1333878165.019	pano_0001_000098	37.0269420704652	22.0953135162864	30.3451706944034	-1.06076415428022	-1.04563481471801	287.903783290658
1333878165.413	pano_0001_000099	37.0269311253137	22.095356408973	30.3775393683463	-0.236935757580701	-0.995674024533107	287.978375424327
1333878165.813	pano_0001_000100	37.0269200113659	22.0953994098193	30.4086054377258	-0.0526118431521168	-0.864052607221074	287.903226895932
1333878166.219	pano_0001_000101	37.0269085846773	22.0954422087932	30.4309849310666	-1.05781556638522	-0.79831838202344	287.726616729027
1333878166.628	pano_0001_000102	37.0268976502687	22.0954845294656	30.4545454280451	-1.14335229346453	-1.1393691830504	287.564026650151
1333878167.049	pano_0001_000103	37.0268869631681	22.0955275474039	30.4949385439977	-0.47148758359285	-0.643623006787335	287.465769040693
1333878167.478	pano_0001_000104	37.0268763277201	22.0955702430873	30.5101404599845	-0.0166383435639565	-0.487684734652063	287.312374325449
1333878167.917	pano_0001_000105	37.0268655228802	22.0956131492623	30.5453112544492	-0.577446207639096	0.0614858823131642	286.96003572166
1333878168.358	pano_0001_000106	37.026854682525	22.095655718221	30.5306239547208	-1.82670595025588	-0.74922932221834	286.637491526187
1333878168.798	pano_0001_000107	37.0268443679677	22.0956988716796	30.5446381270885	-1.64077097000541	-1.09929657217898	286.532946861688
1333878169.234	pano_0001_000108	37.0268339868019	22.0957423711252	30.567717468366	-1.52989013295539	-0.779328434239161	286.601244331698
1333878169.658	pano_0001_000109	37.0268238102139	22.0957851136989	30.5712235728279	-1.03134457169057	-0.946030129354055	286.822881284482
1333878170.079	pano_0001_000110	37.0268131664203	22.0958282814092	30.5880299722776	-1.24526614203656	-0.10672969368319	287.053984817409
1333878170.493	pano_0001_000111	37.0268024032253	22.0958703610119	30.5410163532943	-2.11888271171736	-1.44903849612066	287.221957315981
1333878170.907	pano_0001_000112	37.026792084399	22.0959135777689	30.5920580364764	-0.319167329559937	-0.183960477486369	287.417863080242
1333878171.319	pano_0001_000113	37.0267813144727	22.0959561265719	30.5691008120775	-0.443199713381476	-0.849266742415259	287.357934642416
1333878171.728	pano_0001_000114	37.0267704092988	22.0959987309178	30.5718273548409	-0.976783955770845	-0.818280485092888	287.27848030613
1333878172.139	pano_0001_000115	37.0267596893186	22.0960417923054	30.585681787692	-0.492965337877402	-0.803396548002655	287.586173230756
1333878172.548	pano_0001_000116	37.0267486983283	22.0960845431503	30.6003428483382	-0.367527346748411	-1.0592898646007	287.920863736155
1333878172.952	pano_0001_000117	37.0267376812104	22.0961267802493	30.6350767798722	-0.210729332337521	-1.21049768506272	288.120382021636
1333878173.364	pano_0001_000118	37.0267262939618	22.0961696872953	30.6813665600494	-0.473204753745453	-1.47346004671382	287.967487347971
1333878173.773	pano_0001_000119	37.0267152241694	22.0962122468604	30.7374069392681	-0.523946374299601	-1.38319873332133	287.715979225344
1333878174.189	pano_0001_000120	37.0267042865451	22.0962553009627	30.7943843733519	-0.376046124435255	-1.59028806222836	287.388205995807
1333878174.603	pano_0001_000121	37.0266936798914	22.0962980552331	30.8632086077705	-0.106429352752834	-1.59685951175057	287.062974903117
1333878175.019	pano_0001_000122	37.026683247389	22.0963409721465	30.9262923952192	0.372137399421022	-1.45103104996286	286.9457119341
1333878175.439	pano_0001_000123	37.0266726252337	22.0963838546394	30.9918527677655	-0.157128617383361	-1.92262194482763	287.006806436487
1333878175.858	pano_0001_000124	37.0266620920183	22.0964266811933	31.079157140106	-0.0466202345403709	-1.78347615607085	287.061406154724
1333878176.279	pano_0001_000125	37.0266514870888	22.0964695404974	31.1576650943607	0.0118621727643844	-1.79421583596845	287.101429889105
1333878176.703	pano_0001_000126	37.0266406390658	22.0965126836468	31.2378826765344	-0.48960571023836	-1.36480398471014	287.09389266911
1333878177.129	pano_0001_000127	37.0266300818065	22.0965559004253	31.2854197686538	0.0610727415269036	-1.5749107820552	287.180262643053
1333878177.553	pano_0001_000128	37.0266195223115	22.096599017527	31.3461485765874	0.408952381397998	-1.28754572083138	287.320736531731
1333878177.977	pano_0001_000129	37.0266087333342	22.0966420242354	31.3876047115773	0.530946433202497	-1.04541671942459	287.402779562441
1333878178.404	pano_0001_000130	37.0265977719652	22.0966854107782	31.4194876393303	0.423848458124887	-0.726712145023126	287.343170965711
1333878178.823	pano_0001_000131	37.0265870590264	22.0967283577614	31.4014749126509	0.563187056679765	-0.00181430289257334	287.310435421783
1333878179.244	pano_0001_000132	37.0265762922773	22.0967715791197	31.362927637063	0.759550869039135	0.153325924953811	287.246116668797
1333878179.658	pano_0001_000133	37.0265656933079	22.0968142519081	31.3076916811988	0.820816587318384	0.0800168196815517	287.208157911471
1333878180.074	pano_0001_000134	37.0265550625327	22.0968574083616	31.2588562937453	1.14339675836614	0.0635735226327931	287.192676442391
1333878180.488	pano_0001_000135	37.026544392842	22.0969006492759	31.2095824936405	1.25817966720823	0.285439668280297	287.160349135737
1333878180.898	pano_0001_000136	37.026533763273	22.0969436802666	31.1487076058984	1.28834953881884	0.336661840557204	287.046432164847
1333878181.309	pano_0001_000137	37.0265232356859	22.0969871814793	31.0787651631981	1.77071669035556	0.498925001358161	287.03029961144
1333878181.713	pano_0001_000138	37.0265128151626	22.0970298743395	31.0121765183285	1.88217150624182	0.124439859185201	287.021264467623
1333878182.124	pano_0001_000139	37.0265019826191	22.0970734779851	30.9612306030467	1.48355300139674	0.441578800861797	287.049167643355
1333878182.528	pano_0001_000140	37.0264914211439	22.0971162746251	30.8914058553055	1.48251812408136	0.287342140588267	287.107648159465
1333878182.933	pano_0001_000141	37.0264806925613	22.097159167273	30.8374383747578	1.08854979761182	0.174964038103088	287.130354777763
1333878183.339	pano_0001_000142	37.0264700024462	22.0972022442951	30.785100470297	1.13749160253113	0.211788667443115	287.213117869863
1333878183.743	pano_0001_000143	37.0264593691162	22.0972450291863	30.7321087708697	1.19474748471654	0.0224401020205787	287.269163301287
1333878184.154	pano_0001_000144	37.0264484620603	22.0972884997932	30.6881297212094	1.15711610036348	0.240574407054368	287.364118362004
1333878184.563	pano_0001_000145	37.0264376366477	22.0973313531095	30.6403125096112	1.04686457251919	0.267494211098378	287.454033487171
1333878184.978	pano_0001_000146	37.0264267486056	22.0973743076491	30.5916061401367	1.10249745750137	0.0350984539518445	287.564565917055
1333878185.404	pano_0001_000147	37.0264156477651	22.0974178994412	30.5546181146055	1.06713753880288	0.495732139346455	287.588617532151
1333878185.833	pano_0001_000148	37.0264046667863	22.0974606178148	30.5186874577776	0.551097823524809	0.00726081540856832	287.377888507728
1333878186.269	pano_0001_000149	37.0263939267343	22.097503739272	30.4839222906157	0.926813491235193	-0.273634576756429	287.291392370795
1333878186.708	pano_0001_000150	37.0263831703683	22.0975469250131	30.4638671241701	1.03715217441403	-0.336809610214318	287.384826091762
1333878187.154	pano_0001_000151	37.0263721302316	22.0975904938469	30.4539342224598	0.861945475059377	-0.121173077057781	287.33816636562
1333878187.598	pano_0001_000152	37.026361400017	22.0976334751067	30.427448110655	0.90817841716987	-0.131837425318236	287.118327354251
1333878188.05	pano_0001_000153	37.0263507906457	22.0976767651386	30.4013150539249	1.03530289957698	-0.498245866107112	286.875062886408
1333878188.504	pano_0001_000154	37.0263404037221	22.0977199926514	30.3942197104916	1.29413012987513	-0.276096559821226	286.718060876099
1333878188.963	pano_0001_000155	37.026330085962	22.0977631350384	30.3798050479963	1.52378187837436	-0.399657919836627	286.751245963264
1333878189.429	pano_0001_000156	37.0263196804882	22.0978065788042	30.3670958504081	1.84675395627098	-0.194811043730131	286.914511094867
1333878189.898	pano_0001_000157	37.0263091658218	22.0978497420015	30.3470704844221	2.01842049740754	-0.218430403076512	287.099033015653
1333878190.374	pano_0001_000158	37.026298382798	22.0978928623793	30.3293803008273	1.96836182646565	-0.444402763534166	287.61095008433
1333878190.858	pano_0001_000159	37.0262871554276	22.0979359290287	30.3234586911276	1.64008894107219	-0.349343343080824	288.166820700841
1333878191.354	pano_0001_000160	37.0262755800886	22.0979791987225	30.3223424525931	1.39252178829966	-0.138479097836519	288.252785569399
1333878191.853	pano_0001_000161	37.0262642209538	22.098021861216	30.3035310925916	0.963494900334663	-0.603969564254955	287.74232286591
1333878192.364	pano_0001_000162	37.0262529780154	22.0980654699807	30.3077370356768	0.333105808583575	-0.359885495491365	286.966020782283
1333878192.873	pano_0001_000163	37.0262425721164	22.0981087808188	30.2958445968106	0.43980505584205	-0.48848020235628	286.338651364971
1333878193.389	pano_0001_000164	37.0262322644438	22.0981526434679	30.2876206189394	0.264581592728184	-0.405797132428137	286.079626850608
1333878193.903	pano_0001_000165	37.0262219212819	22.0981963807561	30.2778744092211	-0.139119890750308	-0.450644448893198	286.235945948492
1333878194.414	pano_0001_000166	37.0262116839003	22.0982400362898	30.2711649155244	-0.0693581618101852	-0.604908130052746	286.313882901179
1333878194.928	pano_0001_000167	37.0262014429516	22.0982837586486	30.273053618148	0.131475127376703	-0.574919532039793	286.303637632385
1333878195.449	pano_0001_000168	37.0261911206382	22.0983276301446	30.2753530582413	0.162363289834457	-0.607233615875991	286.25822824252
1333878195.973	pano_0001_000169	37.0261808579794	22.0983713605852	30.2793720066547	0.305203486718502	-0.61521733737391	286.519634438584
1333878196.504	pano_0001_000170	37.0261702343491	22.098415123866	30.2755534844473	0.916055449552675	-0.793938616010307	288.261188908879
1333878197.04	pano_0001_000171	37.0261582729509	22.0984584395343	30.2866962887347	1.21783156539552	-0.290712370485701	289.925056471564
1333878197.579	pano_0001_000172	37.026145387583	22.0985003967778	30.2884915145114	-0.794755987616952	-1.19792360822093	289.502052438286
1333878198.119	pano_0001_000173	37.0261337879138	22.0985431337215	30.2977353455499	0.672398089041493	-1.3427175071061	289.184924486339
1333878198.653	pano_0001_000174	37.0261221128171	22.0985859807023	30.3339210459962	1.33497572947857	-1.07719562330164	288.811210544061
1333878199.174	pano_0001_000175	37.0261105287423	22.0986286268221	30.3639949578792	1.2026206513868	-1.46111085755182	288.400234260353
1333878199.683	pano_0001_000176	37.026099069093	22.0986713235397	30.4172359416261	1.10934959436106	-1.35478191670077	288.386389989993
1333878200.184	pano_0001_000177	37.0260877811521	22.0987139762175	30.4609482036904	1.80183363589377	-1.28767659130101	289.050043618099
1333878200.693	pano_0001_000178	37.0260757867447	22.0987564366852	30.5147253777832	1.85144411986306	-1.26741114126278	289.817298830687
1333878201.219	pano_0001_000179	37.026063365557	22.0987987587684	30.5764630977064	1.61688843362355	-1.42421984774996	290.096814245911
1333878201.758	pano_0001_000180	37.0260507781977	22.098840833296	30.6517979810014	0.914625478013905	-1.20548926552696	289.901197311085
1333878202.319	pano_0001_000181	37.0260385242852	22.0988832850359	30.7160304430872	0.911447890542036	-1.38108472116305	289.355763931446
1333878202.898	pano_0001_000182	37.0260268231177	22.09892614502	30.772413469851	1.11895534431555	-0.713374780539676	288.064138151691
1333878203.499	pano_0001_000183	37.0260160578626	22.0989696550743	30.7834992939606	1.10822654039342	-0.665540849151418	285.749848756278
1333878204.115	pano_0001_000184	37.0260067931057	22.0990134903886	30.7984901322052	1.09764322715283	-0.701897633403201	283.4248457574
1333878204.768	pano_0001_000185	37.025998877147	22.0990576082319	30.818220407702	0.767942246058111	-0.6594023821787	281.158652041033
1333878205.479	pano_0001_000186	37.0259920973963	22.0991021342521	30.8346190620214	0.579430847844708	-0.783024258299915	280.308720413699
1333878206.229	pano_0001_000187	37.0259851220261	22.099146242095	30.8661055602133	0.0776664658033551	-0.891558097892172	281.662215396164
1333878207.025	pano_0001_000188	37.025977923727	22.099190665835	30.889632881619	0.452291965994339	-0.639303464771942	280.718107734265
1333878207.898	pano_0001_000189	37.0259718893138	22.0992351623513	30.9034296087921	0.971175052166468	-1.02587340124169	278.689098132957
1333878209.005	pano_0001_000190	37.0259671581472	22.0992802647013	30.9475599983707	1.21384844658847	-1.02358360208288	277.117925908486
1333878210.419	pano_0001_000191	37.02596149776	22.0993248920167	30.9876486761495	0.468422081695032	-1.14260197952135	279.791637823473
1333878211.828	pano_0001_000192	37.0259553762054	22.0993700094544	31.0255165928975	0.219496119561928	-1.21097023639845	278.420286814275
1333878212.923	pano_0001_000193	37.0259511342786	22.0994161798162	31.0470385868102	-0.189017910140412	-0.718487494059554	273.515710736775
1333878214.02	pano_0001_000194	37.0259500648022	22.0994622748004	31.0606233663857	0.792296438626758	-0.698143675367437	271.441095974434
1333878215.215	pano_0001_000195	37.0259491047671	22.0995081877251	31.0756714874879	0.467721623704419	-1.38379272185352	271.035093883685
1333878216.24	pano_0001_000196	37.0259484311435	22.0995539968296	31.1147071607411	0.485995191090888	-1.33987491441184	271.075843213713
1333878217.13	pano_0001_000197	37.0259476245952	22.0995998253401	31.1317136986181	0.724635071745124	-1.25038505373924	271.488240844322
1333878217.923	pano_0001_000198	37.0259465756067	22.0996455747074	31.1594480555505	0.586905607281983	-0.866062518411681	271.569038027685
1333878218.644	pano_0001_000199	37.0259456683508	22.099691430149	31.1600610986352	0.824545868353978	-1.07485354800195	271.306310914255
1333878219.33	pano_0001_000200	37.0259449318298	22.0997373309525	31.1851868005469	1.09832189932245	-0.707849461896602	270.994978782484
1333878220.02	pano_0001_000201	37.0259443041207	22.0997829125639	31.1933830538765	1.09125626968079	-0.386875581494859	270.604145331573
1333878220.749	pano_0001_000202	37.025943859269	22.0998279090418	31.1984855933115	0.28734666159543	-0.884918037720386	269.419837419435
1333878221.584	pano_0001_000203	37.0259444933203	22.0998732991988	31.2281948905438	0.0219764916902991	-0.626322247177085	268.740611395123
1333878222.534	pano_0001_000204	37.0259446706238	22.0999186857864	31.2525131907314	-0.452113362340702	0.276864515627522	270.111288558671
1333878223.579	pano_0001_000205	37.025944093609	22.0999636354041	31.3090392919257	-0.789856669838783	-0.104463758914551	271.026490793306
1333878224.614	pano_0001_000206	37.0259431778042	22.1000085445863	31.2869790131226	-1.11606692729883	-1.02174435273506	271.022387326955
1333878225.604	pano_0001_000207	37.0259427839929	22.1000538314573	31.3118404410779	-0.883195546650718	-0.645563647499345	270.194270404475
1333878226.669	pano_0001_000208	37.0259430900502	22.10009915242	31.320777695626	-0.648166437708134	-0.259933454973575	268.952520014831
1333878227.809	pano_0001_000209	37.0259435079088	22.1001440174166	31.294515802525	-1.21906031146973	-0.64451184685684	269.042246021602
1333878228.913	pano_0001_000210	37.0259436173736	22.10018893021	31.2982590114698	-1.9807227744011	-0.930025574884962	269.655435052327
1333878229.804	pano_0001_000211	37.0259434410093	22.1002339439275	31.2989101223648	-1.77886655646081	-1.04552498586624	270.671416781199
1333878230.574	pano_0001_000212	37.0259428850298	22.1002788254846	31.312182254158	-1.20804491452332	-1.35003868916574	271.489231408505
1333878231.28	pano_0001_000213	37.0259419058536	22.1003238889165	31.3487901678309	-0.590384054699907	-1.68601092623628	271.947603444027
1333878231.948	pano_0001_000214	37.0259405179657	22.1003690081978	31.4177805781364	-0.816726375628243	-1.16120601844661	271.995421958273
1333878232.579	pano_0001_000215	37.0259394387448	22.1004137248637	31.4741880577058	-0.0203393570690753	-2.14269229807193	271.864814426737
1333878233.17	pano_0001_000216	37.025938231488	22.1004590297621	31.5646322024986	-0.1238449165339	-1.63974271534765	271.637751793231
1333878233.739	pano_0001_000217	37.0259370338692	22.1005042664725	31.627457591705	-0.59679096114442	-1.37409692789865	271.184722731519
1333878234.305	pano_0001_000218	37.025936249723	22.1005495306347	31.6688789306208	-1.0228399599475	-1.13193589760706	270.491878374654
1333878234.879	pano_0001_000219	37.0259359712802	22.1005943920514	31.7078201882541	-1.22741932425676	-1.45329972183413	269.973385198206
1333878235.469	pano_0001_000220	37.025935833163	22.1006394635288	31.7590844584629	-1.59560947829899	-1.26641612782999	269.915092256336
1333878236.08	pano_0001_000221	37.0259359513076	22.1006847096716	31.8103975160047	-0.90696118737288	-0.933930953701664	270.095917078257
1333878236.709	pano_0001_000222	37.0259361086299	22.1007295627235	31.8311253665015	0.145787640803529	-0.973005777080624	270.251016158957
1333878237.365	pano_0001_000223	37.0259360194151	22.1007744151472	31.8604233162478	0.343694524041116	-1.81499338167736	269.98311957022
1333878238.041	pano_0001_000224	37.0259360725864	22.1008196951811	31.9514468237758	0.104975087744264	-1.31799420197954	269.187253913317
1333878238.734	pano_0001_000225	37.0259370992923	22.1008651130714	31.9966532662511	0.908390607700773	-0.636685003694708	268.047207137616
1333878239.455	pano_0001_000226	37.0259391786771	22.100910565749	31.9949304396287	2.40070187682706	0.302885772331816	266.815436081197
1333878240.2	pano_0001_000227	37.0259414478875	22.1009561730333	31.9264096599072	1.94934010782303	1.47136528769823	265.596122165903
1333878240.954	pano_0001_000228	37.0259443705408	22.1010012282238	31.8304355414584	1.62289622657204	1.50767314113464	264.676291137556
1333878241.719	pano_0001_000229	37.0259475908754	22.101046214171	31.710326266475	0.716253374297421	1.10224428728961	263.975190456124
1333878242.5	pano_0001_000230	37.0259517349451	22.1010911907437	31.6087636128068	1.0654215102417	0.707588744371537	262.795760680775
1333878243.295	pano_0001_000231	37.0259566623582	22.1011355724353	31.5310229603201	2.07516312593741	0.167565855430793	263.40172033051
1333878244.125	pano_0001_000232	37.025959902791	22.1011799966065	31.4967075744644	1.41121701986583	-0.87832776001297	265.238061444678
1333878245.021	pano_0001_000233	37.0259624362955	22.101224825578	31.5031010713428	1.66962770303283	-1.04946805544507	266.731567989219
1333878246.021	pano_0001_000234	37.0259648606685	22.1012695383793	31.5472182165831	1.8106859527991	-2.17793202335717	262.637409027081
1333878247.215	pano_0001_000235	37.0259751447715	22.1013141928643	31.6514971023425	2.70184419099818	-2.23861242443237	242.628289842134
1333878248.37	pano_0001_000236	37.0259989754479	22.1013514388214	31.7168867187575	3.49828317455089	-0.599459291708786	220.142976812067
1333878249.315	pano_0001_000237	37.026030327269	22.1013764861915	31.6879119873047	3.47859433047935	-0.316134121327678	205.493538384118
1333878250.14	pano_0001_000238	37.0260647213008	22.1013935814909	31.6456620274112	3.31304441982094	0.235750233409019	197.959042740406
1333878250.879	pano_0001_000239	37.0260997708154	22.1014061300208	31.5725653162226	3.17269115142836	0.315298170839234	193.937102289219
1333878251.565	pano_0001_000240	37.0261351965324	22.101416311021	31.5083916103467	2.79237400018001	-0.0721990476755088	191.950244262899
1333878252.21	pano_0001_000241	37.0261702694164	22.1014262044685	31.4753881888464	2.47371163963486	-0.663370835051708	193.611958191338
1333878252.839	pano_0001_000242	37.0262051880686	22.101437638155	31.4836155762896	1.89718700793654	-1.33902168707298	195.394454730584
1333878253.455	pano_0001_000243	37.0262401105199	22.1014501132258	31.5139696989208	2.22171456522165	-0.756023061511393	197.067138602318
1333878254.061	pano_0001_000244	37.0262746158876	22.1014638294836	31.5246106898412	2.13766095219351	-1.05223891712169	198.147428364913
1333878254.654	pano_0001_000245	37.0263089538999	22.101478179447	31.5390735361725	1.84113223304337	-0.671079428546834	198.344049605965
1333878255.235	pano_0001_000246	37.0263431488782	22.1014925196767	31.5382836032659	1.41399618520982	-0.74918578961342	198.234233224212
1333878255.799	pano_0001_000247	37.0263772911367	22.1015066813518	31.5498260017484	1.03229344549873	-1.06945166282758	198.117739991072
1333878256.34	pano_0001_000248	37.026411534157	22.1015210370464	31.5722415493801	0.181744668241256	-1.4641701207111	198.029714633913
1333878256.854	pano_0001_000249	37.0264457629964	22.1015350893401	31.6157399564981	-0.0256970373577049	-1.56137605745799	197.993865656105
1333878257.355	pano_0001_000250	37.0264805942271	22.101549000421	31.6608475893736	0.611075188016488	-1.22080788521355	198.041115808357
1333878257.839	pano_0001_000251	37.0265150057339	22.1015632398621	31.6931489510462	0.238456991876766	-1.23431114010732	198.173780913493
1333878258.315	pano_0001_000252	37.0265494932318	22.1015774335655	31.727347901091	0.288632888946242	-1.16800030975525	198.168334174315
1333878258.779	pano_0001_000253	37.0265836704773	22.1015914726092	31.7582455398515	0.182085912960993	-1.1633183050037	198.204904450143
1333878259.24	pano_0001_000254	37.0266182990419	22.1016059888429	31.7924155779183	-0.355290646758652	-0.927881664204864	198.223678507761
1333878259.685	pano_0001_000255	37.0266525109486	22.1016201879746	31.8103890912607	-0.294237541905295	-1.11971111640806	198.619392881515
1333878260.131	pano_0001_000256	37.0266869696304	22.1016349343456	31.8397082174197	-0.431358984278582	-0.836227008532791	199.048421479607
1333878260.58	pano_0001_000257	37.0267212598312	22.1016498418311	31.8563689095899	-0.271691532456046	-0.838411972095326	199.486699792542
1333878261.036	pano_0001_000258	37.0267554782287	22.1016650720352	31.8797534238547	-0.182684104492827	-0.75934852579766	199.879878105645
1333878261.495	pano_0001_000259	37.0267894074169	22.1016807295106	31.8852442149073	-0.652999249517673	-1.06039180677977	199.983649975896
1333878261.949	pano_0001_000260	37.0268233966002	22.1016962130948	31.9102306766436	-0.635080017093564	-0.886396160818001	199.893940074175
1333878262.4	pano_0001_000261	37.0268576186682	22.1017114946603	31.9258101759478	-0.238068420463701	-1.0261883137956	199.813022887874
1333878262.845	pano_0001_000262	37.0268917385192	22.1017268798745	31.9565972117707	-0.3616789056545	-1.23052131532572	199.743801018869
1333878263.286	pano_0001_000263	37.0269258165773	22.1017422966228	31.9986181315035	-0.614311920658398	-1.2475612437226	199.676870542288
1333878263.73	pano_0001_000264	37.0269599102645	22.101757501868	32.0447316467762	-0.521302587918294	-0.999264594185078	199.576981186022
1333878264.186	pano_0001_000265	37.0269942734352	22.1017726243878	32.0795338349417	-0.256572637914997	-0.995105790681088	199.471089319803
1333878264.65	pano_0001_000266	37.0270285577665	22.1017876479637	32.1149611072615	-0.0286801674787308	-1.08940889545607	199.354757929205
1333878265.121	pano_0001_000267	37.0270628267202	22.1018025732369	32.1561887273565	0.0926282680991345	-1.06899977541783	199.180907039962
1333878265.6	pano_0001_000268	37.0270971385282	22.1018174480447	32.1972801405936	0.0617131093960787	-1.07654802418553	198.926261792396
1333878266.091	pano_0001_000269	37.027131807288	22.1018322407015	32.2357413070276	0.0462002506300266	-0.835917710990436	198.638824701902
1333878266.585	pano_0001_000270	37.0271661565992	22.1018466964723	32.2632423304021	-0.072702423035051	-1.03969130396051	198.334587509691
1333878267.081	pano_0001_000271	37.0272005180353	22.1018609674775	32.300765641965	-0.369028808230423	-1.21864252127974	198.033930882401
1333878267.58	pano_0001_000272	37.0272351116288	22.1018749415359	32.3469009110704	-0.230524146695357	-1.18233846125335	197.856130467279
1333878268.086	pano_0001_000273	37.0272699112281	22.1018890178786	32.3905386310071	-0.229818035398751	-1.1965004873701	197.929727822039
1333878268.6	pano_0001_000274	37.0273045929778	22.101903331734	32.431523360312	-0.0215019094097222	-0.916579961681243	198.231766052487
1333878269.126	pano_0001_000275	37.0273391514071	22.1019177300814	32.4596573123708	0.381556522750458	-0.920074473065581	198.624350217709
1333878269.665	pano_0001_000276	37.027373561923	22.1019325035508	32.4931992385536	0.195403605587746	-0.811035434728963	199.019077382421
1333878270.221	pano_0001_000277	37.0274077955134	22.1019476412431	32.5224424516782	-0.043703023462906	-0.717353231191783	199.767849023607
1333878270.805	pano_0001_000278	37.0274418070312	22.101963146732	32.5419621318579	0.211443526182691	-0.537708934760113	200.652578893013
1333878271.445	pano_0001_000279	37.0274756502119	22.1019794652496	32.5546641880646	0.165469417371734	-0.472987256006564	201.611178703386
1333878272.186	pano_0001_000280	37.0275091636262	22.1019965983693	32.5686208521947	0.0335474046784029	-0.452019436354637	202.965585895107
1333878273.096	pano_0001_000281	37.0275416915303	22.1020141580772	32.5817870898172	0.599451796423058	-2.03748874826435	204.946292380111
1333878274.325	pano_0001_000282	37.0275739224414	22.1020337668269	32.6914425464347	1.61348606636893	-1.80320749995582	209.200884859434
1333878276.236	pano_0001_000283	37.0276030823175	22.1020576360237	32.7917627254501	2.20893757347904	-2.79598319266035	219.212140221109
1333878281.061	pano_0001_000284	37.0276280130649	22.1020886021181	32.9361651306972	2.91439348143368	-4.37969008438516	233.451521262898
1333878282.6	pano_0001_000285	37.0276446740838	22.1021270894416	33.176190815866	2.96409221783462	-4.98795428697602	253.454893874663
1333878283.71	pano_0001_000286	37.0276488471772	22.1021708473078	33.4652232285589	1.03207665849703	-3.86087577506493	273.89206108523
1333878284.63	pano_0001_000287	37.0276424349207	22.1022151632775	33.6366729186848	1.0616739613191	-1.75206394472032	285.341369098722
1333878285.53	pano_0001_000288	37.0276319978085	22.1022583073498	33.7064546197653	0.717310522682752	-1.39594537821231	287.800334870629
1333878286.441	pano_0001_000289	37.0276206920053	22.1023016406207	33.7492947280407	0.475571115628155	-0.276145182908	287.846707899044
1333878287.301	pano_0001_000290	37.0276097410057	22.1023448647469	33.716359439306	0.642789474744815	0.189427051603313	287.25373148626
1333878288.161	pano_0001_000291	37.0275986597029	22.1023890764761	33.6524935727939	-0.181385960844703	2.87882680181113	286.528790369169
1333878289.031	pano_0001_000292	37.0275881116234	22.1024325513594	33.4219958772883	-0.976179454609132	3.17152165283789	285.849243775327
1333878289.945	pano_0001_000293	37.0275782283312	22.1024758968989	33.1753697134554	-1.07234760863773	2.91947740845273	285.632133420647
1333878290.95	pano_0001_000294	37.0275684835349	22.102518864342	32.9518342986703	-0.495432452239012	2.12724883810199	286.922191419339
1333878292.071	pano_0001_000295	37.02755754311	22.1025609892627	32.7829859256744	-0.277466617072369	0.110792852608342	287.62919228762
1333878293.301	pano_0001_000296	37.0275495599794	22.102606287343	32.75109608192	-0.288521515931966	0.0807291590287054	275.786613385912
1333878294.5	pano_0001_000297	37.0275488025452	22.1026520488969	32.7081794496626	-0.467761853919605	-0.896971449280102	267.350105683976
1333878295.456	pano_0001_000298	37.0275505859671	22.1026975399335	32.7059651855379	-0.802356671566443	-1.07207264093267	267.1000913915
1333878296.266	pano_0001_000299	37.0275519856526	22.1027428975311	32.712746697478	-1.29817577464616	-0.776860032074994	267.961859166165
1333878296.991	pano_0001_000300	37.0275525496536	22.1027883337786	32.698210824281	-2.09477441670754	-0.367574450978729	269.351622539016
1333878297.65	pano_0001_000301	37.0275525105299	22.1028333483832	32.6670823674649	-1.93639093266226	-0.40720006850007	270.704468975721
1333878298.271	pano_0001_000302	37.0275517836901	22.1028785991318	32.6379590937868	-1.5825712850201	-0.412771094232909	271.607140827375
1333878298.865	pano_0001_000303	37.0275505110993	22.1029235023246	32.6151671670377	-1.78969751533504	-0.402895609687013	271.880026328107
1333878299.456	pano_0001_000304	37.0275492448886	22.1029686461344	32.6064499067143	-1.88627978054379	-0.616710784295039	271.551185891758
1333878300.042	pano_0001_000305	37.0275483783214	22.1030138802513	32.6032225172967	-1.81668739629559	-0.487067018104665	270.960359287796
1333878300.62	pano_0001_000306	37.0275478324966	22.1030588050038	32.594626666978	-1.83424460565953	-0.418694139534451	270.452022552293
1333878301.196	pano_0001_000307	37.0275475539444	22.1031038273914	32.5776140158996	-1.86952134843351	-0.385293968320614	270.202788613291
1333878301.77	pano_0001_000308	37.0275474012922	22.103148934317	32.5655374173075	-1.52169208860116	-0.303369505073471	270.446597839622
1333878302.341	pano_0001_000309	37.0275469468858	22.1031941087549	32.545979084447	-1.33578498972931	-0.313211115267498	270.95585618353
